"시설종류",대상시설명,소재지도로명주소,소재지지번주소,위도,경도,관리기관명,관할경찰서명,CCTV설치여부,CCTV설치대수,보호구역도로폭,데이터기준일자
"초등학교",홍천초등학교,강원도 홍천군 홍천읍 신장대리 79-100,강원도 홍천군 홍천읍 신장대리 79-100(홍천초교후문),37.691584,127.8841310,강원도 홍천군청,홍천경찰서,Y,4,,2018-07-30
"초등학교",홍천초등학교,강원도 홍천군 홍천읍 신장대리 5-2,강원도 홍천군 홍천읍 신장대리 5-2(홍천문구사거리),37.6913699,127.8853589,강원도 홍천군청,홍천경찰서,Y,5,,2018-07-30
"초등학교",홍천초등학교,강원도 홍천군 홍천읍 마지기로 28-1,강원도 홍천군 홍천읍 희망리 59-1(구평화약국사거리),37.692495,127.8877363,강원도 홍천군청,홍천경찰서,Y,4,,2018-07-30
"초등학교",홍천초등학교,강원도 홍천군 홍천읍 희망로 24,강원도 홍천군 홍천읍 희망리 71-17도(윤혜진바이올린사거리),37.6934235,127.885417,강원도 홍천군청,홍천경찰서,Y,5,,2018-07-30
"초등학교",석화초등학교,강원도 홍천군 홍천읍 희망리 14-2,강원도 홍천군 홍천읍 희망리 14-2도(석화초 위삼거리),37.6973839,127.8924688,강원도 홍천군청,홍천경찰서,Y,5,,2018-07-30
"초등학교",남산초등학교,강원도 홍천군 홍천읍 연봉리 233-3,강원도 홍천군 홍천읍 연봉리 233-3(남산초 입구사거리),37.6849533,127.8762815,강원도 홍천군청,홍천경찰서,Y,5,,2018-07-30
"초등학교",남산초등학교,강원도 홍천군 홍천읍 연봉리 493-15,강원도 홍천군 홍천읍 연봉리 493-15도(남산초 후문),37.6824388,127.8783094,강원도 홍천군청,홍천경찰서,Y,4,,2018-07-30
"초등학교",주봉초등학교,강원도 홍천군 홍천읍 결운리 275-9,강원도 홍천군 홍천읍 결운리 275-9(주봉초 앞삼거리),37.7102041,127.9145078,강원도 홍천군청,홍천경찰서,Y,5,,2018-07-30
"초등학교",속초초등학교,강원도 홍천군 동면 속초길 14,강원도 홍천군 동면 속초리 683-4도(속초초 삼거리),37.6791585,127.9395587,강원도 홍천군청,홍천경찰서,Y,5,,2018-07-30
"초등학교",명덕초등학교,강원도 홍천군 남면 양덕원로 117,강원도 홍천군 남면 양덕원리 240-2도(명덕초 입구),37.6208087,127.7675749,강원도 홍천군청,홍천경찰서,Y,5,,2018-07-30
"초등학교",서석초등학교,강원도 홍천군 서석면 풍암리 234-5,강원도 홍천군 서석면 풍암리 234-5(서석초정문),37.7116552,128.1877921,강원도 홍천군청,홍천경찰서,Y,5,,2018-07-30
"초등학교",화촌초등학교,강원도 홍천군 화촌면 성산리 463-1,강원도 홍천군 화촌면 성산리 463-1(화촌초 정문앞),37.7707719,127.9674248,강원도 홍천군청,홍천경찰서,Y,4,,2018-07-30
"초등학교",구송초등학교,강원도 홍천군 화촌면 송정리 70-2,강원도 홍천군 화촌면 송정리 70-2(구송초 정문),37.7380268,127.9395188,강원도 홍천군청,홍천경찰서,Y,4,,2018-07-30
"초등학교",화계초등학교,강원도 홍천군 북방면 능평리 88-1,강원도 홍천군 북방면 능평리 88-1(화계초 정문),37.7086372,127.8482341,강원도 홍천군청,홍천경찰서,Y,4,,2018-07-30
"초등학교",매산초등학교,강원도 홍천군 남면 유치리 1519-6,강원도 홍천군 남면 유치리 1519-6(매산초 앞),37.5905116,127.8452629,강원도 홍천군청,홍천경찰서,Y,3,,2018-07-30
"초등학교",오안초등학교,강원도 홍천군 홍천읍 하오안리 744-5,강원도 홍천군 홍천읍 하오안리 744-5(오안초 정문),37.6609159,127.8305909,강원도 홍천군청,홍천경찰서,Y,3,,2018-07-30
"초등학교",두촌초등학교,강원도 홍천군 두촌면 자은리 904-9,강원도 홍천군 두촌면 자은리 904-9(두촌초 정문),37.8672173,128.0171283,강원도 홍천군청,홍천경찰서,Y,3,,2018-07-30
"초등학교",내촌초등학교,강원도 홍천군 내촌면 내촌길 25,강원도 홍천군 내촌면 도관리 444-13(내촌초 앞),37.8157729,128.0868371,강원도 홍천군청,홍천경찰서,Y,4,,2018-07-30
"초등학교",협신초등학교,강원도 홍천군 남면 시동리 1242-2,강원도 홍천군 남면 시동리 1242-2(협신초 앞),37.5952648,127.8187372,강원도 홍천군청,홍천경찰서,Y,2,,2018-07-30
"초등학교",삼생초등학교,강원도 홍천군 서석면 생곡리 695-3,강원도 홍천군 서석면 생곡리 695-3(삼생초 앞),37.6998541,128.2253619,강원도 홍천군청,홍천경찰서,Y,3,,2018-07-30
"초등학교",창촌초등학교,강원도 홍천군 내면 창촌리 1623-1,강원도 홍천군 내면 창촌리 1623-1(창촌초 앞),37.7684879,128.3879933,강원도 홍천군청,홍천경찰서,Y,3,,2018-07-30
"초등학교",한서초등학교,강원도 홍천군 서면 모곡리 454-4,강원도 홍천군 서면 모곡리 454-4(한서초교 앞),37.6918637,127.6007975,강원도 홍천군청,홍천경찰서,Y,4,,2018-07-30
"초등학교",모곡초등학교,강원도 홍천군 서면 모곡리 184-6,강원도 홍천군 서면 모곡리 184-6(모곡초교 앞),37.6763639,127.6000258,강원도 홍천군청,홍천경찰서,Y,3,,2018-07-30
"초등학교",대곡초등학교,강원도 홍천군 서면 대곡리 557-4,강원도 홍천군 서면 대곡리 557-4(대곡초교 앞),37.6292559,127.6481112,강원도 홍천군청,홍천경찰서,Y,3,,2018-07-30
"초등학교",원당초등학교,강원도 홍천군 내면 광원리 1327-7,강원도 홍천군 내면 광원리 1327-7(원당초교 앞),37.8203321,128.4150491,강원도 홍천군청,홍천경찰서,Y,3,,2018-07-30
"초등학교",삼포초등학교,강원도 홍천군 화촌면 내삼포리 807-1,강원도 홍천군 화촌면 내삼포리 807-1(삼포초교 앞),37.7555266,127.9765616,강원도 홍천군청,홍천경찰서,Y,3,,2018-07-30
"초등학교",남산초등학교,강원도 홍천군 홍천읍 연봉리 408-87,강원도 홍천군 홍천읍 연봉리 408-87(남산초 정문앞),37.6836922,127.8774366,강원도 홍천군청,홍천경찰서,Y,4,,2018-07-30
"초등학교",노천초등학교,강원도 홍천군 동면 노천리 1480-2,강원도 홍천군 동면 노천리 1480-2(노천초 정문앞),37.6690832,128.0133556,강원도 홍천군청,홍천경찰서,Y,3,,2018-07-30
"초등학교",동창초등학교,강원도 홍천군 내촌면 물걸리 1811,강원도 홍천군 내촌면 물걸리 1811(동창초 정문앞),37.7843664,128.1460182,강원도 홍천군청,홍천경찰서,Y,3,,2018-07-30
"초등학교",반곡초등학교,강원도 홍천군 서면 반곡리 178-3,강원도 홍천군 서면 반곡리 178-3(반곡초 앞),37.6905247,127.6656929,강원도 홍천군청,홍천경찰서,Y,3,,2018-07-30
"초등학교",율전초등학교,강원도 홍천군 내면 율전리 1489-15,강원도 홍천군 내면 율전리 1489-15(율전초 앞),37.749309,128.3071236,강원도 홍천군청,홍천경찰서,Y,3,,2018-07-30
"어린이집",홍천어린이집,강원도 홍천군 홍천읍 희망리 344-45,강원도 홍천군 홍천읍 희망리 344-45(홍천어린이집앞),37.6907459,127.8785884,강원도 홍천군청,홍천경찰서,Y,4,,2018-07-30
"유치원",우성유치원,강원도 홍천군 홍천읍 무궁화로4길 7,강원도 홍천군 홍천읍 연봉리288-6(우성유치원앞),37.6835686,127.8722226,강원도 홍천군청,홍천경찰서,Y,3,,2018-07-30
"어린이집",희망어린이집,강원도 홍천군 홍천읍 희망리 270,강원도 홍천군 홍천읍 희망리 270(희망어린이집앞),37.6972382,127.8842171,강원도 홍천군청,홍천경찰서,Y,2,,2018-07-30
"유치원",마야유치원,강원도 홍천군 홍천읍 희망리 307-11,강원도 홍천군 홍천읍 희망리 307-11(마야유치원입구),37.6948100,127.8842775,강원도 홍천군청,홍천경찰서,Y,4,,2018-07-30
